,Roll,Pitch,Heading,Pressure(Pha),Temperature,WindSpeed,Date,Time,latitude,longitude,Altitude
0,-4.45,-4.90,295.46,1000.16,23.70,0,,,,,
1,-3.77,-5.10,295.19,1000.06,23.70,0,,,,,
2,-3.95,-4.61,295.57,1000.12,23.70,0,,,,,
3,-4.65,-5.32,296.47,1000.10,23.70,0,,,,,
4,-3.98,-4.86,296.03,1000.11,23.70,0-4.24,-5.36,296.38,1000.09,23.70,
5,-3.99,-5.32,295.84,1000.04,23.70,0,,,,,
6,-4.18,-5.28,295.66,1000.08,23.70,0,,,,,
7,-4.21,-5.54,295.21,1000.13,23.70,0-4.87,-5.10,295.46,1000.08,23.70,
8,-4.38,-4.60,295.47,1000.05,23.70,0,,,,,
9,-4.20,-5.08,296.11,1000.12,23.70,0,,,,,
10,-4.23,-4.90,295.57,1000.10,23.70,0-4.65,-5.54,294.93,1000.10,23.70,
11,-4.02,-5.14,295.93,1000.06,23.70,0,,,,,
12,-4.42,-4.86,295.47,1000.09,23.70,0,,,,,
13,-3.74,-5.50,295.28,1000.07,23.70,0-3.99,-5.32,295.56,1000.12,23.70,
14,-3.99,-4.88,295.47,1000.16,23.70,0,,,,,
15,-3.76,-4.86,295.93,1000.11,23.70,0,,,,,
16,-3.98,-4.86,295.56,1000.08,23.70,0-3.99,-4.88,295.30,1000.12,23.70,
17,-3.78,-5.57,295.74,1000.13,23.70,0,,,,,
18,-4.18,-5.06,296.03,1000.10,23.70,0-3.99,-4.66,295.30,1000.11,23.70,
19,-4.01,-5.12,296.02,1000.15,23.70,0,,,,,
20,-3.99,-5.32,295.38,1000.13,23.70,0,,,,,
21,-3.99,-5.32,295.21,1000.12,23.70,0-4.24,-5.36,295.20,1000.16,23.70,
22,-3.96,-4.84,295.57,1000.12,23.70,0,,,,,
23,-4.23,-4.68,295.09,1000.15,23.70,0,,,,,
24,-4.50,-5.85,292.78,1000.18,23.70,0-4.64,-2.32,292.55,1000.11,23.70,
25,-1.92,-6.31,289.22,1000.17,23.70,0,,,,,
26,-0.36,-5.06,290.82,1000.17,23.70,0,,,,,
27,-3.83,-4.29,289.58,1000.14,23.70,0-2.80,-3.03,291.25,1000.15,23.70,
28,-4.04,-4.27,292.38,1000.13,23.70,0,,,,,
29,-3.56,-4.68,291.71,1000.16,23.70,0,,,,,
30,-4.43,-4.88,292.60,1000.09,23.70,0-2.90,-5.13,293.11,1000.13,23.70,
31,-3.78,-5.57,293.20,1000.15,23.70,0,,,,,
32,-4.23,-5.34,294.39,1000.14,23.70,0,,,,,
33,-4.23,-4.90,294.79,1000.12,23.70,0-4.45,-4.68,294.37,1000.16,23.70,
34,-3.84,-5.88,294.60,1000.12,23.70,0,,,,,
35,-4.37,-7.89,295.14,1000.12,23.70,0,,,,,
36,-3.94,-4.17,293.49,1000.11,23.70,0-3.38,-9.34,293.31,1000.10,23.70,
37,-5.39,-5.17,289.79,1000.12,23.70,0,,,,,
38,-4.29,-4.79,291.25,1000.16,23.70,0,,,,,
39,-4.76,-7.49,290.88,1000.12,23.70,0-3.35,-5.59,290.41,1000.12,23.70,
40,-4.74,-5.39,286.97,1000.14,23.70,0,,,,,
41,-3.94,-10.55,288.84,1000.10,23.70,0,,,,,
42,-0.86,-7.12,290.81,1000.18,23.70,0-4.25,-4.89,293.71,1000.14,23.70,
43,-9.25,-8.56,295.13,1000.12,23.70,0,,,,,
44,-3.48,-5.87,294.73,1000.11,23.70,0,,,,,
45,-1.80,-4.74,294.70,1000.09,23.70,0-5.36,-5.36,293.88,1000.05,23.70,
46,-2.92,-4.50,292.84,1000.10,23.70,0,,,,,
47,-4.46,-5.58,293.14,1000.10,23.70,0,,,,,
48,-3.78,-5.57,293.63,1000.13,23.70,0-4.40,-5.50,293.68,1000.05,23.70,
49,-3.99,-5.76,293.01,1000.08,23.70,0,,,,,
50,-4.17,-5.72,293.25,1000.06,23.70,0,,,,,
51,-3.76,-6.42,292.67,1000.08,23.70,0-4.81,-6.12,292.65,1000.07,23.70,
52,-4.00,-5.79,293.36,1000.05,23.70,0,,,,,
53,-4.43,-5.54,293.88,1000.07,23.70,0,,,,,
54,-4.67,-5.78,292.91,1000.04,23.70,0-3.97,-5.74,293.33,1000.04,23.70,
55,-3.97,-5.96,293.33,1000.06,23.70,0,,,,,
56,-4.00,-5.34,293.64,1000.04,23.70,0,,,,,
57,-4.21,-5.10,293.28,1000.02,23.70,0-4.23,-5.34,293.04,999.98,23.70,
58,-4.41,-5.52,292.99,1000.02,23.70,0,,,,,
59,-4.21,-5.54,293.25,1000.05,23.70,0,,,,,
60,-3.99,-5.32,294.23,999.99,23.70,0,22/11/2020,18:43:29.,6228.3481N,614.0566E,
61,-4.21,-5.32,293.36,1000.06,23.70,0,,,,,
62,-3.77,-5.32,293.15,1000.03,23.70,0,,,,,
63,-4.24,-5.58,293.54,1000.02,23.70,0,,,,,
64,-4.50,-5.63,293.04,1000.00,23.70,0,22/11/2020,18:43:31.,6228.3505N,614.0578E,
65,-4.45,-5.34,293.51,1000.00,23.70,0,,,,,
66,-4.02,-5.81,293.38,1000.01,23.70,0,,,,,
67,-4.40,-5.50,292.99,1000.02,23.70,0,,,,,
68,-4.22,-6.45,293.28,1000.08,23.70,0,22/11/2020,18:43:33.,6228.3510N,614.0590E,
69,-4.19,-5.30,292.88,999.99,23.70,0,,,,,
70,-3.99,-5.54,292.70,1000.04,23.70,0,,,,,
71,-3.74,-5.50,292.80,1000.02,23.70,0,,,,,
72,-3.98,-5.98,293.15,1000.01,23.70,0,22/11/2020,18:43:35.,6228.3510N,614.0587E,
73,-4.02,-5.59,292.91,1000.02,23.70,0,,,,,
74,-3.97,-5.52,293.07,1000.05,23.70,0,,,,,
75,-3.77,-5.54,293.43,1000.04,23.70,0,,,,,
76,-3.74,-5.50,292.91,1000.09,23.70,0,22/11/2020,18:43:37.,6228.3515N,614.0587E,
77,-4.44,-5.78,293.33,1000.08,23.70,0,,,,,
78,-4.19,-5.52,293.62,1000.08,23.70,0,,,,,
79,-3.28,-5.03,293.51,1000.08,23.70,0,,,,,
80,-4.21,-5.10,292.96,1000.09,23.70,0,22/11/2020,18:43:39.,6228.3510N,614.0589E,
81,-4.04,-4.49,293.41,1000.05,23.70,0,,,,,
82,-3.78,-5.34,293.28,1000.12,23.60,0,22/11/2020,18:43:41.,6228.3505N,614.0585E,
83,-3.96,-5.72,293.59,1000.09,23.70,0,,,,,
84,-4.44,-5.78,292.96,1000.04,23.70,0,,,,,
85,-4.27,-5.85,293.43,1000.09,23.70,0,22/11/2020,18:43:43.,6228.3505N,614.0584E,
86,-3.74,-5.72,292.88,1000.08,23.70,0,,,,,
87,-4.00,-5.79,293.33,1000.10,23.70,0,,,,,
88,-4.19,-5.74,293.23,1000.16,23.70,0,,,,,
89,-4.39,-5.72,293.23,1000.16,23.70,0,,,,,
90,-4.24,-5.81,292.77,1000.09,23.70,0,22/11/2020,18:43:45.,6228.3505N,614.0587E,
91,-4.86,-6.20,293.41,1000.14,23.70,0,,,,,
92,-4.39,-5.72,293.20,1000.06,23.70,0,,,,,
93,-4.41,-5.52,293.04,1000.12,23.70,0,22/11/2020,18:43:47.,6228.3500N,614.0594E,
94,-4.41,-5.74,293.07,1000.07,23.60,0,,,,,
95,-4.19,-5.52,292.88,1000.12,23.60,0,,,,,
96,-3.97,-5.30,293.68,1000.13,23.70,0,,,,,
97,-3.97,-5.52,293.12,1000.06,23.70,0,22/11/2020,18:43:49.,6228.3496N,614.0607E,
98,-4.61,-5.93,293.23,1000.12,23.70,0,,,,,
99,-4.21,-5.76,292.85,1000.11,23.70,0,,,,,
100,-4.02,-5.81,293.41,1000.14,23.70,0,,,,,
101,-3.77,-5.32,293.36,1000.16,23.70,0,22/11/2020,18:43:51.,6228.3491N,614.0630E,
102,-4.43,-5.76,292.43,1000.17,23.70,0,,,,,
103,-4.22,-5.56,293.07,1000.13,23.70,0,,,,,
104,-4.43,-5.76,292.28,1000.11,23.60,0,22/11/2020,18:43:53.,6228.3481N,614.0643E,
105,-4.45,-5.56,293.59,1000.15,23.60,0,,,,,
106,-4.21,-5.76,292.51,1000.13,23.60,0,,,,,
107,-4.43,-5.76,293.33,1000.12,23.70,0,,,,,
108,-3.80,-5.36,293.15,1000.11,23.60,0,22/11/2020,18:43:55.,6228.3471N,614.0649E,
109,-4.44,-5.78,293.33,1000.12,23.70,0,,,,,
110,-4.21,-5.54,292.88,1000.16,23.60,0,,,,,
111,-3.75,-5.52,293.86,1000.16,23.60,0,,,,,
112,-4.22,-6.22,293.23,1000.12,23.60,0,22/11/2020,18:43:57.,6228.3476N,614.0655E,
113,-4.43,-5.54,293.12,1000.12,23.60,0,,,,,
114,-4.02,-5.81,293.36,1000.17,23.60,0,,,,,
115,-3.80,-5.59,292.99,1000.09,23.60,0,,,,,
116,-4.22,-5.78,293.33,1000.18,23.60,0,,,,,
117,-4.00,-5.79,292.93,1000.16,23.60,0,22/11/2020,18:44:00.,6228.3486N,614.0670E,
118,-4.44,-6.00,293.07,1000.13,23.60,0,,,,,
119,-3.97,-5.96,292.70,1000.16,23.60,0,,,,,
120,-4.42,-6.20,293.12,1000.15,23.60,0,,,,,
121,-4.46,-5.58,293.17,1000.21,23.70,0,22/11/2020,18:44:02.,6228.3496N,614.0671E,
122,-4.22,-6.00,293.59,1000.14,23.60,0,,,,,
123,-4.18,-5.50,293.07,1000.18,23.60,0,,,,,
124,-4.21,-5.54,293.07,1000.16,23.70,0,,,,,
125,-4.02,-5.59,293.33,1000.10,23.60,0,22/11/2020,18:44:04.,6228.3515N,614.0667E,
126,-4.24,-5.58,292.77,1000.17,23.60,0,,,,,
127,-3.96,-5.28,292.51,1000.18,23.60,0,,,,,
128,-3.78,-5.34,293.43,1000.11,23.60,0,,,,,
129,-4.05,-5.85,293.59,1000.18,23.60,0,22/11/2020,18:44:06.,6228.3525N,614.0673E,
130,-3.98,-5.98,293.30,1000.21,23.60,0,22/11/2020,18:44:08.,6228.3535N,614.0685E,
131,-3.98,-5.98,293.30,1000.21,23.60,0,,,,,
132,-4.46,-6.03,293.49,1000.15,23.60,0,,,,,
133,-4.24,-5.36,292.62,1000.16,23.60,0,,,,,
134,-4.03,-5.83,293.33,1000.20,23.60,0,,,,,
135,-4.44,-6.00,293.04,1000.16,23.60,0,22/11/2020,18:44:10.,6228.3540N,614.0682E,
136,-4.21,-5.98,293.25,1000.23,23.60,0,,,,,
137,-4.21,-5.54,292.85,1000.16,23.60,0,,,,,
138,-4.65,-5.54,293.23,1000.21,23.60,0,,,,,
139,-3.53,-5.96,293.12,1000.18,23.60,0,22/11/2020,18:44:12.,6228.3544N,614.0688E,
140,-4.45,-5.34,293.15,1000.21,23.60,0,,,,,
141,-4.44,-6.00,293.23,1000.29,23.60,0,,,,,
142,-4.16,-5.96,293.04,1000.18,23.60,0,,,,,
143,-4.16,-5.26,292.93,1000.16,23.60,0,22/11/2020,18:44:14.,6228.3554N,614.0693E,
144,-4.21,-5.10,293.41,1000.20,23.60,0,,,,,
145,-4.46,-5.36,293.12,1000.11,23.60,0,,,,,
146,-4.45,-4.90,292.85,1000.18,23.60,0,,,,,
147,-4.19,-5.74,292.85,1000.17,23.60,0,22/11/2020,18:44:16.,6228.3559N,614.0688E,
148,-4.67,-5.78,293.41,1000.09,23.60,0,,,,,
149,-4.43,-5.76,293.04,1000.05,23.60,0,,,,,
150,-3.78,-5.57,293.23,1000.12,23.60,0,,,,,
151,-4.45,-5.56,292.85,1000.10,23.60,0,22/11/2020,18:44:17.,6228.3559N,614.0683E,
152,-4.02,-6.03,293.41,1000.13,23.60,0,,,,,
153,-4.22,-5.56,293.68,1000.09,23.60,0,,,,,
154,-4.21,-5.76,292.59,1000.15,23.70,0,,,,,
155,-4.21,-5.54,293.55,1000.09,23.60,0,22/11/2020,18:44:20.,6228.3554N,614.0661E,
156,-4.19,-5.74,293.12,1000.11,23.60,0,,,,,
157,-4.21,-5.76,292.40,1000.09,23.60,0,,,,,
158,-4.19,-5.74,293.07,1000.12,23.60,0,,,,,
159,-4.43,-5.32,292.93,1000.10,23.70,0,22/11/2020,18:44:21.,6228.3554N,614.0655E,
160,-4.19,-5.54,293.23,1000.07,23.60,0,,,,,
161,-4.19,-5.52,293.07,1000.11,23.60,0,,,,,
162,-3.99,-5.54,292.59,1000.09,23.60,0,,,,,
163,-4.44,-6.00,292.93,1000.11,23.60,0,22/11/2020,18:44:23.,6228.3554N,614.0654E,
164,-4.44,-5.78,293.41,1000.09,23.60,0,,,,,
165,-4.63,-5.78,293.41,1000.09,23.60,0,,,,,
166,-4.63,-5.74,293.12,1000.05,23.60,0,,,,,
167,-4.19,-5.52,293.04,1000.05,23.60,0,22/11/2020,18:44:23.,6228.3554N,614.0654E,
168,-4.67,-5.56,293.57,1000.07,23.60,0,,,,,
169,-4.87,-5.54,293.41,1000.05,23.60,0,,,,,
170,-3.81,-5.39,293.41,1000.07,23.60,0,,,,,
171,-4.14,-5.46,293.23,1000.10,23.60,0,22/11/2020,18:44:23.,6228.3554N,614.0654E,
172,-3.56,-5.57,292.93,1000.12,23.60,2,,,,,
173,-4.02,-5.81,293.01,1000.08,23.60,2,,,,,
174,-4.41,-5.52,293.20,1000.07,23.60,2,,,,,
175,-4.21,-5.98,293.33,1000.06,23.60,2,22/11/2020,18:44:23.,6228.3554N,614.0654E,
176,-3.74,-5.50,293.07,1000.06,23.60,2,,,,,
177,-4.21,-5.98,293.04,1000.05,23.60,2,,,,,
178,-4.21,-5.32,292.96,1000.05,23.60,2,,,,,
179,-4.65,-5.98,293.49,1000.08,23.60,2,22/11/2020,18:44:23.,6228.3554N,614.0654E,
180,-3.99,-5.54,293.15,1000.10,23.60,1,,,,,
181,-4.00,-5.79,293.20,1000.07,23.60,1,,,,,
182,-4.19,-5.74,292.77,1000.03,23.60,1,,,,,
183,-4.22,-6.00,293.76,1000.08,23.60,1,22/11/2020,18:44:33.,6228.3549N,614.0682E,
184,-4.43,-5.54,292.93,1000.03,23.60,1,,,,,
185,-3.98,-5.98,293.12,1000.13,23.60,1,,,,,
186,-4.22,-5.78,292.77,1000.04,23.60,1,,,,,
187,-3.77,-5.32,293.30,1000.06,23.60,1,22/11/2020,18:44:36.,6228.3549N,614.0685E,
188,-4.65,-5.98,292.96,1000.03,23.60,1,,,,,
189,-4.22,-6.00,292.77,1000.04,23.60,1,,,,,
190,-4.00,-5.79,293.12,1000.02,23.60,1,,,,,
191,-4.62,-6.39,293.12,1000.07,23.60,1,22/11/2020,18:44:38.,6228.3554N,614.0687E,
192,-4.48,-5.60,293.01,1000.05,23.60,1,,,,,
193,-4.00,-6.23,292.67,999.99,23.60,1,,,,,
194,-4.43,-5.54,293.28,1000.05,23.60,1,,,,,
195,-3.78,-5.57,293.23,1000.05,23.60,0,22/11/2020,18:44:40.,6228.3554N,614.0689E,
196,-3.56,-5.57,293.15,1000.03,23.60,0,,,,,
197,-4.21,-5.76,292.59,999.99,23.60,0,,,,,
198,-4.21,-5.76,291.84,1000.04,23.60,0,,,,,
199,-4.39,-5.72,293.28,1000.03,23.60,0,22/11/2020,18:44:42.,6228.3559N,614.0692E,
200,-4.26,-5.83,292.82,1000.03,23.60,0,,,,,
201,-4.22,-5.56,293.23,1000.05,23.60,0,,,,,
202,-3.98,-5.98,293.01,1000.03,23.60,0,,,,,
203,-3.99,-5.54,293.33,1000.08,23.60,0,22/11/2020,18:44:43.,6228.3559N,614.0693E,
204,-4.67,-5.78,293.12,1000.10,23.60,0,,,,,
205,-4.24,-5.81,292.56,1000.05,23.60,0,,,,,
206,-4.22,-5.78,292.29,1000.09,23.60,0,,,,,
207,-3.99,-5.54,293.30,1000.06,23.60,0,22/11/2020,18:44:45.,6228.3559N,614.0695E,
208,-3.74,-5.72,292.85,1000.08,23.60,0,,,,,
209,-3.74,-5.50,293.41,1000.03,23.60,0,,,,,
210,-3.99,-5.54,293.47,1000.10,23.60,0,,,,,
211,-4.24,-5.36,293.04,1000.04,23.60,0,22/11/2020,18:44:48.,6228.3559N,614.0697E,
212,-3.98,-6.20,293.30,1000.12,23.60,0,,,,,
213,-4.22,-5.78,292.73,1000.10,23.60,0,,,,,
214,-4.22,-5.56,293.30,1000.06,23.60,0,,,,,
215,-4.65,-5.54,293.20,1000.08,23.60,0,22/11/2020,18:44:50.,6228.3559N,614.0695E,
216,-3.77,-5.32,292.91,1000.04,23.60,0,,,,,
217,-4.19,-5.52,293.04,1000.02,23.60,0,,,,,
218,-4.21,-4.66,292.67,1000.08,23.60,0,,,,,
219,-4.21,-5.32,292.51,1000.05,23.60,0,22/11/2020,18:44:52.,6228.3554N,614.0692E,
220,-4.29,-5.87,293.36,1000.04,23.60,0,,,,,
221,-4.65,-5.76,292.85,1000.08,23.60,0,,,,,
222,-4.21,-4.88,292.64,999.98,23.60,0,,,,,
223,-4.21,-5.32,293.30,1000.01,23.60,0,22/11/2020,18:44:53.,6228.3544N,614.0673E,
224,-4.39,-6.15,292.90,1000.10,23.60,0,,,,,
225,-4.43,-5.76,293.47,1000.06,23.60,0,,,,,
226,-4.01,-4.90,292.85,1000.03,23.60,0,,,,,
227,-4.21,-5.98,293.59,1000.09,23.60,0,22/11/2020,18:44:56.,6228.3515N,614.0631E,
228,-4.69,-5.36,292.90,1000.06,23.60,0,,,,,
229,-4.48,-5.83,293.04,1000.07,23.60,0,,,,,
230,-3.60,-5.32,0.00,1000.04,23.60,0,,,,,
231,-3.60,-5.86,292.74,1000.03,23.60,0,22/11/2020,18:44:58.,6228.3500N,614.0611E,
232,-3.99,-5.54,293.49,1000.08,23.60,0,,,,,
233,-4.41,-5.52,293.12,1000.08,23.60,0,,,,,
234,-4.16,-5.48,293.15,1000.03,23.60,0,,,,,
235,-4.24,-5.36,292.96,1000.09,23.60,0,22/11/2020,18:45:00.,6228.3491N,614.0622E,
236,-4.00,-6.01,293.39,1000.09,23.60,0,,,,,
237,-4.44,-5.78,293.15,1000.13,23.60,0,,,,,
238,-3.98,-5.08,292.59,1000.11,23.60,0,,,,,
239,-4.23,-5.34,293.04,1000.16,23.60,0,22/11/2020,18:45:02.,6228.3500N,614.0572E,
240,-4.24,-5.36,293.33,1000.12,23.60,0,,,,,
241,-4.41,-5.74,293.65,1000.10,23.60,0,,,,,
242,-4.21,-5.54,293.30,1000.10,23.60,0,,,,,
243,-4.23,-5.34,293.47,1000.15,23.60,0,22/11/2020,18:45:04.,6228.3491N,614.0530E,
244,-4.40,-5.50,292.85,1000.13,23.60,0,,,,,
245,-4.41,-5.30,293.28,1000.09,23.60,0,,,,,
246,-4.40,-5.06,293.39,1000.05,23.60,0,,,,,
247,-3.31,-5.96,292.40,1000.12,23.60,0,22/11/2020,18:45:06.,6228.3471N,614.0494E,
248,-4.25,-5.59,293.04,1000.12,23.60,0,,,,,
249,-4.25,-4.92,293.30,1000.08,23.60,0,,,,,
250,-3.96,-5.50,293.78,1000.21,23.60,0,,,,,
251,-4.22,-5.56,293.04,1000.13,23.60,0,22/11/2020,18:45:08.,6228.3452N,614.0459E,
252,-4.42,-6.20,293.28,1000.13,23.60,0,,,,,
253,-4.41,-5.52,293.15,1000.16,23.60,0,,,,,
254,-4.22,-5.56,293.49,1000.09,23.60,0,22/11/2020,18:45:10.,6228.3442N,614.0437E,
255,-4.04,-5.38,293.47,1000.07,23.60,0,,,,,
256,-3.74,-5.72,0.00,1000.15,23.60,0,,,,,
257,-4.21,-4.66,294.56,1000.17,23.60,0,,,,,
258,-4.00,-6.01,294.84,1000.13,23.60,0,22/11/2020,18:45:12.,6228.3447N,614.0411E,
259,-3.96,-5.28,294.14,1000.15,23.60,0,,,,,
260,-4.28,-5.35,293.77,1000.18,23.60,0,,,,,
261,-3.81,-5.61,294.25,1000.15,23.60,0,,,,,
262,-3.98,-5.98,293.90,1000.14,23.60,0,22/11/2020,18:45:14.,6228.3442N,614.0411E,
263,-4.22,-5.56,294.33,1000.16,23.60,0,,,,,
264,-3.99,-5.32,294.08,1000.13,23.60,0,,,,,
265,-4.19,-5.52,294.33,1000.14,23.60,0,,,,,
266,-4.25,-6.05,294.35,1000.21,23.60,0,22/11/2020,18:45:16.,6228.3447N,614.0425E,
267,-4.24,-5.30,294.16,1000.14,23.60,0,,,,,
268,-4.24,-5.58,294.24,1000.18,23.60,0,,,,,
269,-3.99,-6.03,294.08,1000.15,23.60,0,,,,,
270,-3.99,-5.32,294.02,1000.16,23.60,0,22/11/2020,18:45:18.,6228.3461N,614.0444E,
271,-4.58,-5.45,294.18,1000.10,23.60,0,,,,,
272,-3.97,-5.52,294.00,1000.11,23.60,0,,,,,
273,-4.65,-5.54,294.00,1000.10,23.60,0,,,,,
274,-4.45,-5.12,294.43,1000.10,23.60,0,22/11/2020,18:45:20.,6228.3471N,614.0447E,
275,-3.97,-5.78,294.68,1000.15,23.60,0,,,,,
276,-3.97,-5.74,293.83,1000.12,23.60,0,,,,,
277,-4.00,-5.56,294.00,1000.11,23.60,0,,,,,
278,-4.19,-5.52,293.75,1000.16,23.60,0,22/11/2020,18:45:22.,6228.3481N,614.0450E,
279,-4.20,-5.08,293.90,1000.15,23.60,0,,,,,
280,-4.17,-5.94,293.92,1000.18,23.60,0,,,,,
281,-4.23,-5.34,294.18,1000.15,23.60,0,,,,,
282,-4.00,-5.79,294.41,1000.14,23.60,0,22/11/2020,18:45:24.,6228.3491N,614.0453E,
283,-4.21,-5.54,293.92,1000.22,23.60,0,,,,,
284,-4.24,-5.81,294.10,1000.19,23.60,0,,,,,
285,-4.21,-5.76,293.65,1000.11,23.60,0,,,,,
286,-4.19,-5.30,293.73,1000.15,23.60,0,22/11/2020,18:45:26.,6228.3496N,614.0469E,
287,-4.23,-5.34,293.63,1000.18,23.60,0,,,,,
288,-4.01,-5.12,294.18,1000.16,23.60,0,,,,,
289,-4.21,-5.54,294.18,1000.13,23.60,0,,,,,
290,-4.22,-5.78,293.85,1000.14,23.60,0,22/11/2020,18:45:28.,6228.3486N,614.0469E,
291,-4.43,-5.98,293.85,1000.10,23.60,0,,,,,
292,-4.19,-5.96,293.90,1000.13,23.60,0,,,,,
293,-4.00,-5.79,293.73,1000.19,23.60,0,,,,,
294,-3.98,-5.98,294.27,1000.16,23.60,0,22/11/2020,18:45:30.,6228.3481N,614.0472E,
295,-3.81,-5.83,294.10,1000.14,23.60,0,,,,,
296,-3.81,-5.83,294.10,1000.14,23.60,0,,,,,
297,-4.21,-5.98,294.06,1000.17,23.60,0,22/11/2020,18:45:32.,6228.3481N,614.0480E,
298,-3.94,-5.48,294.67,1000.17,23.60,0,,,,,
299,-4.02,-5.81,293.83,1000.16,23.60,0,,,,,
300,-3.76,-5.98,294.43,1000.14,23.60,0,,,,,
301,-3.98,-5.98,293.81,1000.16,23.60,0,22/11/2020,18:45:34.,6228.3486N,614.0491E,
302,-4.18,-5.50,293.92,1000.21,23.60,0,,,,,
303,-4.43,-5.54,294.18,1000.15,23.60,0,,,,,
304,-3.99,-5.54,294.04,1000.17,23.60,0,,,,,
305,-4.22,-5.78,293.55,1000.19,23.60,0,22/11/2020,18:45:36.,6228.3486N,614.0494E,
306,-3.80,-5.59,294.94,1000.21,23.60,0,,,,,
307,-3.97,-6.20,293.92,1000.15,23.60,0,,,,,
308,-3.97,-5.30,293.81,1000.22,23.60,0,,,,,
309,-4.25,-4.92,293.73,1000.16,23.60,0,22/11/2020,18:45:38.,6228.3500N,614.0516E,
310,-4.21,-5.54,294.25,1000.19,23.60,0,,,,,
311,-4.46,-5.58,293.98,1000.17,23.60,0,,,,,
312,-3.97,-5.74,294.51,1000.20,23.60,0,,,,,
313,-3.75,-5.74,293.90,1000.22,23.60,0,22/11/2020,18:45:40.,6228.3515N,614.0550E,
314,-3.97,-5.52,294.16,1000.20,23.60,0,,,,,
315,-4.02,-6.03,293.90,1000.19,23.60,0,,,,,
316,-4.20,-6.20,293.75,1000.23,23.60,0,,,,,
317,-4.00,-5.56,293.98,1000.26,23.60,0,22/11/2020,18:45:42.,6228.3540N,614.0591E,
318,-4.00,-6.23,294.18,1000.22,23.60,0,,,,,
319,-3.99,-5.32,294.25,1000.22,23.60,0,,,,,
320,-4.02,-6.03,293.65,1000.27,23.60,0,,,,,
321,-3.95,-5.94,294.18,1000.19,23.60,0,22/11/2020,18:45:44.,6228.3554N,614.0620E,
322,-4.43,-5.54,293.98,1000.28,23.60,0,,,,,
323,-4.03,-5.83,294.25,1000.25,23.60,0,,,,,
324,-4.00,-6.01,294.67,1000.26,23.60,0,,,,,
325,-4.24,-5.58,293.83,1000.27,23.60,0,22/11/2020,18:45:46.,6228.3569N,614.0625E,
326,-3.97,-5.74,294.18,1000.30,23.60,0,,,,,
327,-4.23,-5.34,294.32,1000.31,23.60,0,,,,,
328,-4.02,-5.81,293.98,1000.27,23.60,0,,,,,
329,-4.17,-5.72,294.43,1000.34,23.60,0,22/11/2020,18:45:48.,6228.3574N,614.0614E,
330,-3.99,-5.76,293.92,1000.28,23.60,0,,,,,
331,-3.56,-5.35,294.10,1000.24,23.60,0,,,,,
332,-4.22,-5.78,293.63,1000.32,23.60,0,,,,,
333,-4.24,-5.58,294.08,1000.34,23.60,0,22/11/2020,18:45:50.,6228.3564N,614.0606E,
334,-4.01,-4.90,294.44,1000.31,23.60,0,,,,,
335,-3.74,-5.72,294.35,1000.31,23.60,0,,,,,
336,-4.02,-6.03,294.87,1000.29,23.60,0,,,,,
337,-4.43,-5.32,295.36,1000.35,23.60,0,22/11/2020,18:45:52.,6228.3554N,614.0609E,
338,-4.17,-5.72,295.52,1000.29,23.60,0,,,,,
339,-4.06,-6.21,294.99,1000.33,23.60,0,,,,,
340,-1.50,-4.28,318.85,1000.29,23.60,0,,,,,
341,-9.43,-0.45,322.19,1000.28,23.60,0,22/11/2020,18:45:54.,6228.3554N,614.0623E,
342,-14.07,2.88,334.01,1000.28,23.60,0,,,,,
343,-17.08,1.35,347.54,1000.26,23.60,0,,,,,
344,-17.51,-0.39,2.77,1000.20,23.60,0,,,,,
345,-8.66,-6.24,302.01,1000.18,23.60,0,22/11/2020,18:45:56.,6228.3549N,614.0642E,
346,-10.97,-3.08,268.94,1000.13,23.60,0,,,,,
347,1.89,-4.98,249.50,1000.19,23.60,0,,,,,
348,-0.87,-12.03,290.63,1000.13,23.60,0,,,,,
349,0.87,-6.77,319.40,1000.11,23.60,0,22/11/2020,18:45:58.,6228.3554N,614.0645E,
350,16.22,-12.16,305.58,1000.11,23.60,0,,,,,
351,3.89,-15.01,284.80,1000.10,23.60,0,,,,,
352,3.14,-18.94,232.78,1000.18,23.60,0,,,,,
353,0.41,-2.90,191.95,1000.14,23.60,0,22/11/2020,18:46:00.,6228.3540N,614.0647E,
354,2.12,-12.81,187.94,1000.15,23.60,0,,,,,
355,2.15,-14.81,196.52,1000.09,23.60,0,,,,,
356,-1.39,-6.52,199.20,1000.12,23.60,0,,,,,
357,7.26,-2.67,223.61,1000.12,23.60,0,22/11/2020,18:46:02.,6228.3535N,614.0643E,
358,7.26,-5.21,222.89,1000.13,23.60,0,,,,,
359,1.89,-7.59,236.31,1000.13,23.60,0,,,,,
360,1.11,-14.41,254.55,1000.16,23.60,0,,,,,
361,4.91,-8.20,256.56,1000.09,23.60,0,22/11/2020,18:46:04.,6228.3530N,614.0623E,
362,-1.51,-7.15,233.28,1000.08,23.60,0,,,,,
363,2.13,-5.96,209.31,1000.13,23.60,0,,,,,
364,-3.02,-5.59,189.98,1000.09,23.60,0,,,,,
365,13.22,-12.99,182.85,1000.18,23.60,0,22/11/2020,18:46:06.,6228.3540N,614.0615E,
366,0.00,-13.99,180.49,1000.17,23.60,0,,,,,
367,2.97,-13.85,202.69,1000.17,23.60,0,,,,,
368,-0.65,-12.25,200.03,1000.21,23.60,0,,,,,
369,6.75,-17.20,220.75,1000.24,23.60,0,22/11/2020,18:46:08.,6228.3549N,614.0616E,
370,1.83,-6.64,218.19,1000.27,23.60,0,,,,,
371,1.11,-8.47,204.17,1000.35,23.60,0,,,,,
372,-6.72,-9.65,216.09,1000.40,23.60,0,,,,,
373,-0.74,-13.20,237.45,1000.29,23.60,0,22/11/2020,18:46:10.,6228.3544N,614.0632E,
374,-2.80,-14.25,263.23,1000.27,23.60,0,,,,,
375,-2.80,-12.35,266.55,1000.30,23.60,0,,,,,
376,4.88,-8.75,263.66,1000.18,23.60,1,22/11/2020,18:46:12.,6228.3544N,614.0635E,
377,-7.07,-15.20,278.37,1000.29,23.60,1,,,,,
378,-2.04,-14.03,263.52,1000.22,23.60,1,,,,,
379,-1.71,-13.36,260.65,1000.22,23.60,1,,,,,
380,-3.06,-7.53,260.97,1000.25,23.60,1,22/11/2020,18:46:14.,6228.3554N,614.0650E,
381,3.86,-8.66,262.69,1000.27,23.60,1,,,,,
382,-7.23,-1.80,248.68,1000.28,23.60,1,,,,,
383,3.22,-11.46,251.87,1000.38,23.60,2,22/11/2020,18:46:16.,6228.3559N,614.0657E,
384,-1.01,-3.03,254.18,1000.31,23.60,2,22/11/2020,18:46:20.,6228.3559N,614.0698E,
385,-0.75,-11.55,248.51,1000.36,23.60,4,22/11/2020,18:46:26.,6228.3569N,614.0821E,
386,-5.51,-5.31,264.87,1000.42,23.60,4,,,,,
387,-0.21,1.48,263.82,1000.39,23.60,4,22/11/2020,18:46:30.,6228.3579N,614.0874E,
388,-1.04,-3.55,249.14,1000.47,23.60,3,22/11/2020,18:46:36.,6228.3593N,614.0946E,
389,-4.25,-4.03,230.34,1000.26,23.50,1,22/11/2020,18:46:46.,6228.3608N,614.1037E,
390,-2.55,-7.07,318.31,1000.23,23.50,1,22/11/2020,18:46:52.,6228.3637N,614.1104E,
391,0.00,-0.77,298.68,1000.40,23.50,0,22/11/2020,18:46:56.,6228.3657N,614.1150E,
392,-0.18,4.16,300.27,1000.43,23.50,0,,,,,
393,-0.18,-8.47,306.70,1000.42,23.50,0,22/11/2020,18:46:58.,6228.3662N,614.1163E,
394,-3.30,-3.82,304.73,1000.45,23.50,0,,,,,
395,-2.56,-0.98,306.71,1000.51,23.50,0,,,,,
396,-1.27,-5.08,306.75,1000.43,23.50,0,,,,,
397,-1.51,-8.01,303.12,1000.53,23.50,0,22/11/2020,18:47:00.,6228.3662N,614.1163E,
398,4.46,-8.70,304.23,1000.54,23.50,0,,,,,
399,-0.49,-2.20,303.42,1000.59,23.50,0,,,,,
400,-0.27,-4.67,303.80,1000.55,23.50,0,,,,,
401,-9.49,-2.16,309.93,1000.54,23.50,0,22/11/2020,18:47:02.,6228.3662N,614.1159E,
402,-2.71,-4.16,313.11,1000.57,23.50,0,,,,,
403,-5.89,-4.28,307.00,1000.63,23.50,0,,,,,
404,-2.81,-5.42,311.50,1000.58,23.50,0,,,,,
405,-6.75,-5.16,303.16,1000.65,23.50,0,22/11/2020,18:47:04.,6228.3662N,614.1152E,
406,-8.97,-9.76,300.70,1000.65,23.50,0,,,,,
407,-6.96,0.58,304.97,1000.63,23.50,0,,,,,
408,-2.09,-12.66,310.37,1000.69,23.50,0,22/11/2020,18:47:06.,6228.3662N,614.1128E,
409,-4.08,-5.22,302.01,1000.73,23.50,0,,,,,
410,7.01,-5.37,295.88,1000.68,23.50,0,,,,,
411,-3.12,-6.01,293.88,1000.68,23.50,0,,,,,
412,-1.13,-10.25,295.12,1000.66,23.50,0,22/11/2020,18:47:08.,6228.3647N,614.1111E,
413,-5.24,-9.25,290.49,1000.69,23.50,0,,,,,
414,-3.85,-0.48,274.58,1000.70,23.50,0,,,,,
415,-2.61,-9.38,254.05,1000.73,23.50,0,,,,,
416,-0.39,-6.51,240.56,1000.73,23.50,0,22/11/2020,18:47:10.,6228.3647N,614.1111E,
417,-7.92,-6.88,241.50,1000.69,23.50,0,,,,,
418,-5.99,-2.27,249.44,1000.73,23.50,0,,,,,
419,1.65,-6.60,259.83,1000.73,23.50,0,,,,,
420,-2.25,-5.26,271.86,1000.73,23.50,0,22/11/2020,18:47:12.,6228.3627N,614.1094E,
421,1.97,-3.66,275.13,1000.73,23.50,0,,,,,
422,-3.19,-5.25,267.22,1000.67,23.50,0,,,,,
423,-3.29,1.23,255.42,1000.69,23.50,0,,,,,
424,-4.02,-4.92,262.49,1000.69,23.50,0,22/11/2020,18:47:14.,6228.3613N,614.1094E,
425,0.38,-2.83,273.66,1000.66,23.50,0,,,,,
426,-2.46,-9.89,285.07,1000.68,23.50,0,,,,,
427,-6.47,-2.62,292.36,1000.69,23.50,0,,,,,
428,0.89,-10.08,287.49,1000.74,23.50,0,22/11/2020,18:47:16.,6228.3588N,614.1085E,
429,-3.51,-3.74,274.88,1000.69,23.50,0,,,,,
430,0.55,-9.91,273.91,1000.70,23.50,0,,,,,
431,-1.74,-9.21,277.38,1000.70,23.50,0,,,,,
432,-0.24,-8.26,275.58,1000.73,23.50,0,22/11/2020,18:47:18.,6228.3583N,614.1107E,
433,-1.99,-3.10,272.69,1000.62,23.50,0,,,,,
434,-0.94,-9.43,267.32,1000.66,23.50,0,,,,,
435,0.40,-8.27,262.47,1000.69,23.50,0,22/11/2020,18:47:20.,6228.3574N,614.1142E,
436,1.41,-10.36,247.11,1000.69,23.50,0,,,,,
437,-0.73,-7.51,251.27,1000.74,23.50,0,,,,,
438,5.93,-5.93,255.96,1000.73,23.50,0,,,,,
439,-0.74,-7.40,256.13,1000.64,23.50,0,22/11/2020,18:47:22.,6228.3564N,614.1186E,
440,-0.48,-8.91,257.49,1000.63,23.50,0,,,,,
441,-2.94,-3.15,265.63,1000.66,23.50,0,,,,,
442,-0.57,-11.53,262.77,1000.67,23.50,0,,,,,
443,-1.21,-4.83,252.25,1000.61,23.50,0,22/11/2020,18:47:24.,6228.3554N,614.1229E,
444,2.02,-6.76,254.51,1000.67,23.50,0,,,,,
445,-1.24,-4.70,256.64,1000.66,23.50,0,,,,,
446,5.08,-5.08,261.21,1000.60,23.50,0,22/11/2020,18:47:26.,6228.3549N,614.1263E,
447,-0.91,-6.42,259.70,1000.60,23.50,0,,,,,
448,-0.86,1.51,262.41,1000.54,23.50,0,,,,,
449,-1.26,-10.11,266.87,1000.62,23.50,0,,,,,
450,-3.94,-3.50,267.71,1000.62,23.50,0,22/11/2020,18:47:28.,6228.3559N,614.1290E,
451,0.83,-8.95,269.56,1000.56,23.50,0,,,,,
452,-0.47,-7.53,271.75,1000.57,23.50,0,,,,,
453,2.49,-6.99,275.41,1000.57,23.50,0,,,,,
454,-4.83,-7.57,281.48,1000.58,23.50,0,22/11/2020,18:47:30.,6228.3569N,614.1300E,
455,1.95,-12.80,288.26,1000.57,23.50,0,,,,,
456,-0.63,-8.43,291.08,1000.56,23.50,0,,,,,
457,-3.27,-7.44,293.18,1000.62,23.50,0,,,,,
458,1.65,-7.79,293.32,1000.66,23.50,0,22/11/2020,18:47:32.,6228.3588N,614.1317E,
459,-1.58,-7.49,296.57,1000.60,23.50,0,,,,,
460,-2.84,-14.55,295.03,1000.62,23.50,0,,,,,
461,-3.45,-3.45,297.13,1000.63,23.50,0,22/11/2020,18:47:34.,6228.3613N,614.1339E,
462,-3.86,-8.43,299.97,1000.57,23.50,0,,,,,
463,-3.86,-8.43,299.97,1000.57,23.50,0,,,,,
464,4.96,-9.00,299.41,1000.58,23.50,0,,,,,
465,-3.92,-7.17,295.43,1000.58,23.50,0,22/11/2020,18:47:36.,6228.3618N,614.1355E,
466,2.16,-1.92,287.35,1000.51,23.50,0,,,,,
467,-0.44,-14.14,282.45,1000.56,23.50,0,,,,,
468,-2.21,-8.66,256.29,1000.59,23.50,0,,,,,
469,2.29,-6.41,247.94,1000.59,23.50,0,22/11/2020,18:47:38.,6228.3618N,614.1367E,
470,-2.78,-10.75,224.39,1000.54,23.50,0,,,,,
471,-0.45,-10.43,226.49,1000.52,23.50,0,,,,,
472,3.27,-9.14,224.38,1000.63,23.50,0,,,,,
473,1.34,-9.17,246.13,1000.54,23.50,0,22/11/2020,18:47:40.,6228.3618N,614.1381E,
474,0.00,-9.43,238.48,1000.59,23.50,0,,,,,
475,3.81,-2.69,239.38,1000.54,23.50,0,,,,,
476,1.92,-10.63,235.49,1000.57,23.50,0,,,,,
477,-2.20,-14.45,252.32,1000.56,23.50,0,22/11/2020,18:47:42.,6228.3618N,614.1393E,
478,2.01,-14.45,255.96,1000.61,23.50,0,,,,,
479,0.44,-11.39,257.38,1000.77,23.50,0,,,,,
480,2.63,-11.47,247.46,1000.68,23.50,0,22/11/2020,18:47:44.,6228.3618N,614.1404E,
481,0.00,-7.82,244.13,1000.64,23.40,0,,,,,
482,-1.71,-4.05,249.41,1000.68,23.40,0,,,,,
483,-2.06,-8.29,241.39,1000.64,23.40,0,,,,,
484,-5.81,-7.54,241.07,1000.63,23.50,0,22/11/2020,18:47:46.,6228.3603N,614.1378E,
485,-4.30,-8.62,242.00,1000.66,23.50,0,,,,,
486,-1.90,-4.05,245.61,1000.62,23.50,0,,,,,
487,-0.63,-7.41,248.36,1000.67,23.40,0,22/11/2020,18:47:48.,6228.3593N,614.1393E,
488,-5.26,-7.09,268.62,1000.64,23.40,0,,,,,
489,-3.45,-5.28,282.61,1000.64,23.40,0,,,,,
490,-3.10,-7.24,290.77,1000.58,23.40,0,22/11/2020,18:47:50.,6228.3593N,614.1394E,
491,-1.99,-8.19,290.88,1000.62,23.50,0,,,,,
492,-0.44,-6.99,294.48,1000.66,23.40,0,,,,,
493,-0.44,-9.06,302.77,1000.65,23.40,0,,,,,
494,-0.44,-7.97,304.49,1000.69,23.50,0,22/11/2020,18:47:52.,6228.3598N,614.1396E,
495,0.67,-6.46,305.22,1000.77,23.40,0,,,,,
496,-2.66,-9.12,308.39,1000.69,23.40,0,,,,,
497,-0.92,-8.78,312.74,1000.73,23.40,0,,,,,
498,-0.66,-5.51,313.98,1000.65,23.40,0,22/11/2020,18:47:54.,6228.3598N,614.1395E,
499,-0.90,-7.43,315.71,1000.65,23.40,0,,,,,
500,-3.87,-11.69,323.33,1000.64,23.40,0,,,,,
501,2.20,-8.40,325.54,1000.67,23.40,0,,,,,
502,-3.95,-5.54,331.29,1000.76,23.40,0,22/11/2020,18:47:56.,6228.3598N,614.1392E,
503,2.28,-7.89,331.72,1000.68,23.40,0,,,,,
504,-2.52,-6.81,328.61,1000.66,23.40,0,,,,,
505,-5.11,-5.11,325.18,1000.70,23.40,0,,,,,
506,-0.46,-12.70,330.40,1000.65,23.40,0,22/11/2020,18:47:58.,6228.3598N,614.1389E,
507,-2.85,-7.54,330.46,1000.68,23.40,0,,,,,
508,2.82,-5.64,333.31,1000.58,23.40,0,,,,,
509,-4.65,-12.27,331.18,1000.65,23.40,0,,,,,
510,1.52,-10.03,330.05,1000.59,23.40,0,22/11/2020,18:48:00.,6228.3598N,614.1386E,
511,1.29,-9.28,330.13,1000.61,23.40,0,,,,,
512,3.59,-10.14,329.61,1000.66,23.40,0,,,,,
513,1.13,-11.79,325.96,1000.64,23.40,0,,,,,
